[
  { "id": 1, "name": "Sushi Place", "tags": "Japanese â€¢ Sushi", "rating": 4, "address": "123 Ocean Ave, Vancouver, BC", "phone": "+1-604-555-0100", "lat": 49.2827, "lng": -123.1207, "image": "https://images.unsplash.com/photo-1546069901-ba9599a7e63c" },
  { "id": 2, "name": "Burger Hub", "tags": "Fast Food", "rating": 5, "address": "45 King St W, Toronto, ON", "phone": "+1-416-555-0123", "lat": 43.6486, "lng": -79.3854, "image": "https://images.unsplash.com/photo-1550547660-d9450f859349" },
  { "id": 3, "name": "Spice Garden", "tags": "Indian", "rating": 3, "address": "88 Queen St, Ottawa, ON", "phone": "+1-613-555-0145", "lat": 45.4215, "lng": -75.6972, "image": "https://images.unsplash.com/photo-1512058564366-18510be2db19" },
  { "id": 4, "name": "Pasta Corner", "tags": "Italian", "rating": 4, "address": "200 King St, Hamilton, ON", "phone": "+1-905-555-0167", "lat": 43.2557, "lng": -79.8711, "image": "https://images.unsplash.com/photo-1473093226795-af9932fe5856" },
  { "id": 5, "name": "Taco Town", "tags": "Mexican", "rating": 5, "address": "12 5th Ave, Calgary, AB", "phone": "+1-403-555-0189", "lat": 51.0447, "lng": -114.0719, "image": "https://images.unsplash.com/photo-1543353071-873f17a7a088" }
]
